{
  "file": "./models/stations.json",
  "stations": [
    {
      "name": "TRAMORE",
      "latitude": "52.161435",
      "longitude": "-7.149295",
      "userid": "c4b02b8c-a34d-4ee8-af63-fdf91ba08ab5",
      "_id": "f9a520cd-1df8-40f2-b0a7-8cb80b29f7c9"
    },
    {
      "name": "DUNMORE",
      "latitude": "52.149218",
      "longitude": "-6.994615",
      "userid": "c4b02b8c-a34d-4ee8-af63-fdf91ba08ab5",
      "_id": "27806d91-9e8e-4e60-b04d-5368fa490aab"
    },
    {
      "name": "DUBLIN",
      "latitude": "53.33306",
      "longitude": "-6.24889",
      "userid": "f77a04f2-fcfb-4444-bbea-3102d79ff5a9",
      "_id": "143675f9-ba45-4e01-a3e2-bbd8fa512f19"
    },
    {
      "name": "DUNMORE",
      "latitude": "52.149218",
      "longitude": "-6.994615",
      "userid": "f77a04f2-fcfb-4444-bbea-3102d79ff5a9",
      "_id": "95371c16-7b3e-43cd-ad1c-b37e57cc04c8"
    },
    {
      "name": "TRAMORE",
      "latitude": "52.161435",
      "longitude": "-7.149295",
      "userid": "f77a04f2-fcfb-4444-bbea-3102d79ff5a9",
      "_id": "decd8699-9f88-40aa-8f8b-241de05caaea"
    },
    {
      "name": "TRAMORE",
      "latitude": "52.161435",
      "longitude": "-7.149295",
      "userid": "dcf5655c-0dfa-4312-a57c-0bfe1553ee81",
      "_id": "3ba8e9e6-0fef-444f-910c-8720009bea02"
    },
    {
      "name": "CORK",
      "latitude": "51.93114167246838",
      "longitude": "-8.0561370839132",
      "userid": "f77a04f2-fcfb-4444-bbea-3102d79ff5a9",
      "_id": "4211c000-afe1-4e88-960f-08e93cd3b5bf"
    },
    {
      "name": "FERMOY RURAL",
      "latitude": "52.16382422414709",
      "longitude": "-6.791198726277799",
      "userid": "f77a04f2-fcfb-4444-bbea-3102d79ff5a9",
      "_id": "7cc169b1-9c70-4477-8262-fbefc91affab"
    },
    {
      "name": "CURRAGLASS ED",
      "latitude": "52.09047639407369",
      "longitude": "-8.012466430664064",
      "userid": "ec8eda83-ea88-4071-abcd-4caaca3c5337",
      "_id": "3fe41b40-0767-4360-8933-8d1a3857ee1e"
    }
  ]
}